title,street,city,state,zip,country,lat,lng,phone
Fleet Warning System ,16 saint Joseph Blvd,Port Ewen,NY,12466,United States,41.895937,-73.975429,336-854-5536
Access Rack Inc.,4395 Dardanelle Drive,Orlando,FL,32808,United States,28.5803545,-81.4384996,336-854-5537
Texas Safety Equipment,20910 Harmon Road,Fort Worth,TX,76177,United States,32.9384143,-97.3237711,336-854-5538
Circle W Pilot Car,6336 New Authon Road,Andrews,TX,79714,United States,32.3035858,-102.5404378,336-854-5539
Truckers Lighthouse,201 Crutchfield Ave,Nashville,TN,37210,United States,36.136506,-86.731003,336-854-5540
Anthony's Auto Electronics,1478 East Street,Pittsfield,MA,1201,United States,42.4542256,-73.2147933,336-854-5541
BP Signs ,5215 New Utrecht Ave ,Brooklyn,NY,11219,United States,40.6335243,-73.994917,336-854-5542
Responder PSE,141B Millwell Drive,Maryland Heights,MO,63043,United States,38.7192859,-90.4372971,336-854-5543
Blitz auto ,5 Wilson Ave,Spring Valley,NY,10977,United States,41.1361643,-74.0308655,336-854-5544
Advanced Auto Parts ,2454 S US HWY 421,Harlan,KY,40831,United States,36.8257601,-83.3227587,336-854-5545
KTAccomms,276 N El Camino Real ,Oceanside,CA,92058,United States,33.2308894,-117.3280815,336-854-5546
LiveView Technologies,P.O. Box 971205,Orem,UT,84097,United States,40.2757714,-111.6743957,336-854-5547
Executive Bus Builders Inc,5495 Wilson Street,RIVERSIDE,CA,92509,United States,34.0189468,-117.38142,336-854-5548
NYS Rescue,7 Prague Place ,Lakewood,NJ,8701,United States,40.0457193,-74.200745,336-854-5549
10-8 Tactical,7002 D Newington Road,Lorton,VA,22079,United States,38.7361742,-77.184027,336-854-5550
Dana Safety Supply HQ,5221 W Market Street,Greensboro,NC,27409,United States,36.0703772,-79.8822267,336-854-5551
Nutra Group,111 Kimball Way,South San Francisco,CA,94080,United States,37.6507709,-122.3910637,336-854-5552
Labtronics Inc,511 34th Street ,Catlettsburg,KY,41129,United States,38.4060014,-82.6026866,336-854-5553
Brash Erelectronics,53 Oakley Ave ,Odenville,AL,35120,United States,33.683483,-86.3955715,336-854-5554
Barney's Pilot Car Equipment,2233 NE 244th Ave,Wood Village,OR,97060,United States,45.5396001,-122.4136205,336-854-5555
Traffic Safety & Equipment Co. Inc.,457 NJ-17 N,Mahwah,NJ,7430,United States,41.0789578,-74.1486314,336-854-5556
Cartronix ,1155 Marsh Street ,Valparaiso,IN,46385,United States,41.458038,-87.074718,336-854-5557
Town of Bourne DPW,35 Ernest Valeri Road B,Buzzards Bay,MA,2532,United States,41.7594224,-70.5781444,336-854-5558
Emergency Vehicle Center,2444 Ridgeway Blvd,Manchester,NJ,8759,United States,40.0174532,-74.3070045,336-854-5559
Laughlin Supply,12301 East Marginal Way South ,Seattle,WA,98168,United States,47.4933033,-122.2864836,336-854-5560
Auto Fix,1585 Lakeland Ave,Bohemia,NY,11716,United States,40.7827364,-73.1114943,336-854-5561
Florida Drone Supply,11104 Sparkleberry Drive,Fort Myers,FL,33913,United States,26.5824452,-81.7910263,336-854-5562
United Trade & Logistics Suriname,4400 NW 74th Ave,Miami,FL,33166,United States,25.81481,-80.319283,336-854-5563
Brosnan Security,1 Blue Hill Plaza,Pearl River,NY,10965,United States,41.0486631,-74.0067845,336-854-5564
Yipes Plattsburg LLC,6 Trade Road,Plattsburgh,NY,12901,United States,44.7190099,-73.4699656,336-854-5565
Gregory Poole Equipment Company,400 Gregory Poole Lane,Mebane,NC,27302,United States,36.0700243,-79.3056228,336-854-5566
KWCF,7807 Alafia Ridge Road ,River View,FL,33569,United States,27.8724665,-82.2991857,336-854-5567
EOM Operations,480 Edsel Drive,Richmond Hill,GA,31324,United States,31.9414288,-81.3147712,336-854-5568
Midstate Mobile Radio,1681 S Olden Ave,Trenton,NJ,8610,United States,40.2060287,-74.711439,336-854-5569
TLC Auto & Truck Center,230 Route 109,Farmingdale,NY,11735,United States,40.7195641,-73.4158571,336-854-5570
All star Sports NY,284 Valley View Drive,Endicott,NY,13760,United States,42.066449,-76.132053,336-854-5571
Black and White EV,1611 W. San Bernardino Road,Covina,CA,91722,United States,34.089822,-117.9235729,336-854-5572
"SecureTech Systems, Inc.",4500 Fuller Drive,Irving,TX,75038,United States,32.868113,-96.9473309,336-854-5573
JGB Hose HQ NY,4635 Crossroads Park Drive,Liverpool,NY,13088,United States,43.123336,-76.1951279,336-854-5574
JGB Hose NY,2540 Walden Ave,Cheektowaga,NY,14225,United States,42.9085992,-78.741965,336-854-5575
JGB Hose  ND,"520 Bean Drive,Â ",Williston,ND,58801,United States,48.1500513,-103.5998363,336-854-5576
JGB Hose MO,9707 Green Park Industrial Drive,St. Louis,MO,63123,United States,38.5293874,-90.327191,336-854-5577
JGB Hose  NC,1407 Westinghouse Boulevard,Charlotte,NC,28273,United States,35.1221737,-80.9360665,336-854-5578
JGB Hose TX,619 East Sam Houston Parkway South,Pasadena,TX,77503,United States,29.6950399,-95.1512977,336-854-5579
Beitzel Corporation (Mechanic Shop),333 Corporate Drive,Grantsville,MD,21536,United States,39.6873383,-79.147809,336-854-5580
EMT Ambulance / Outfitters,1080 Trump Road NW,Carrollton,OH,44615,United States,40.5922727,-81.0965482,336-854-5581
911 Rapid Response ,700 W. Main Street,Annville,PA,17003,United States,40.3258463,-76.5294945,336-854-5582
Wiggins Lift CO.,2571 Cortez Street,Oxnard,CA,93031,United States,34.2323241,-119.1682372,336-854-5583
Directional Traffic,1580 Gabler Road,Chambersburg,PA,17201,United States,39.9616841,-77.6763747,336-854-5584
Enormis Mobile Specialties Inc.,5250 Buffalo Road,Erie,PA,16510,United States,42.1561516,-79.9826714,336-854-5585
Auto Tech,3611 W Flagler Street,Miami,FL,33135,United States,25.7721071,-80.2536727,336-854-5586
Elite Vehicle Solutions ,1000 Bennett Blvd ,Lakewood,NJ,8701,United States,40.0580497,-74.1772981,336-854-5587
Movinon,636 Hempstead Turnpike ,Franklin Square,NY,11010,United States,40.7068739,-73.6633475,336-854-5588
Terry's Toppers,700 East Prospect Road,Oakland Park,FL,33334,United States,26.1811828,-80.1377107,336-854-5589
NFC Industries ,PO Box 10 ,"Plumsteadville,",PA,18949,United States,40.3819857,-75.1467759,336-854-5590
Vincentsen,7 Burch Rock Lane ,Bristole,MA,4539,United States,43.9626473,-69.4948366,336-854-5591
MTD Business Technology Solutions,2411 Maple Street,Everett,WA,98201,United States,47.9851499,-122.1905176,336-854-5592
911 Outfitters LLC ,2936 S. York Street,Muskogee,OK,74401,United States,35.7156886,-95.3387653,336-854-5593
Capital City Auto Accessories ,6000 S Pennsylvania Ave. ,Lansing,MI,48911,United States,42.670848,-84.5386826,336-854-5594
EFS Houston ,5810 Ledbetter Street,Houston,YX,77087,United States,29.6805068,-95.3153967,336-854-5595
FireWire,1281 South Old ST. RD. 67,Danville,IN,46158,United States,39.5789627,-86.3764758,336-854-5596
Tip Top Customs,1802 N. Division Street,Morris,IL,60450,United States,41.3768104,-88.42297,336-854-5597
Securly Yours,1409 Locust Ave ,Brooklyn,NY,11230,United States,40.6191782,-73.9610093,336-854-5598
Sirens & Emergency Beacons LLC,13 N. Main Street,Fairchance,PA,15436,United States,39.8206495,-79.7516852,336-854-5599
Malinak Communications,117 Diamond Lane,Latrobe,PA,15650,United States,40.257707,-79.3881963,336-854-5600
EVS Inc,12366 Penn Street,Whitter,CA,90602,United States,33.9752488,-118.0445588,336-854-5601
Select Communications Inc,7653-C Fullerton Road,Springfield,VA,22153,United States,38.7421161,-77.2076394,336-854-5602
TS Mobile Accessories,64 Pennsylvania Ave,Springfield,MA,1118,United States,42.1003073,-72.5306155,336-854-5603
Safety First Emergency Vehicles ,484 Somerset Ave,Lakewood,NJ,8701,United States,40.0953176,-74.1950491,336-854-5604
Municipality Equipment Enterprises,2703 Fire Road,Egg Harbor,NJ,8234,United States,39.4097518,-74.5405838,336-854-5605
Major Police Supply NJ,47 N. Dell Ave,Kenvil,NJ,7847,United States,40.884669,-74.617439,336-854-5606
Major Police Supply NJ,644 Cross St,Lakewwood,NJ,8701,United States,40.0687716,-74.2431515,336-854-5607
Major Police Supply MD,7806 Braygreen Road,Laurel,MD,20707,United States,39.0813039,-76.8714655,336-854-5608
Major Police Supply VA,5113 Commonwealth Drive ,Fredericksburg,VA,22407,United States,38.2170648,-77.5122261,336-854-5609
Police Upfitters ,2333 W 3rd Ct,Hialeah,FL,33010,United States,25.84319552,-80.28880976,336-854-5610
Kelco Supply Company,20000 176th Street NW,Big Lake,MN,55309,United States,45.334495,-93.7187889,336-854-5611
Midwest Vac Products LLC,7627 Richter Road,Mascoutah,IL,62258,United States,38.4970463,-89.7706603,336-854-5612
Tekstyle Audio & Security,23 W 2nd S,Liberal,KS,67901,United States,37.0399084,-100.9234019,336-854-5613
GlobalTech,214 S Pecan Strett,Deport,TX,75435,United States,33.5270827,-95.31686,336-854-5614
Global Tech Public Safety,29455 N Cave Creek Road #118 ,Cave Creek,AZ,85331,United States,33.7515572,-111.9913147,336-854-5615
Action EMT Lighting,8 London Ave,lakewood,NJ,8701,United States,40.0776547,-74.1812982,336-854-5616
HQ Custom Design ,275 Huyler Street ,South Hackensack,NJ,7606,United States,40.8705664,-74.0495654,336-854-5617
Expertlys,Herman Wildenveys Gate 43E ,Stavern,NO,3292,United States,59.9414342,10.6691842,336-854-5618
Bossman Construction,6327 W Coldwater Road,Flushing,MI,48433,United States,43.08903,-83.8054329,336-854-5619
SBC Global,800 Sonoma Blvd,Vallejo,CA,94590,United States,38.0894909,-122.2446943,336-854-5620
B & M Sales,27607 Ayersville Pleasant Bend Road,Defiance,OH,43512,United States,41.2439006,-84.2941729,336-854-5621
"Avalanche Strategies, LLC",144 Dixon Street,Selbyville,DE,19975,United States,38.4538079,-75.2290364,336-854-5622
Eclipse Bright,2814 Kenwood Drive ,Hopkinsville,KN,42240,United States,36.8448673,-87.4984808,336-854-5623
Martel Communications,559 Stewart Gin Road,Liberty,SC,29657,United States,34.810759,-82.736597,336-854-5624
Unlimited Linings,6220 S 36th Street,Phoenix,AZ,85042,United States,33.390518,-112.005748,336-854-5625
Bradleys Slights,906 Diana Drive,Kouts,IN,46347,United States,41.3105075,-87.0339729,336-854-5626
"Safety First Emergency Vehicles, LLC",40 Chestnut Street # 10,Lakewood,NJ,8701,United States,40.0528788,-74.219079,336-854-5627
Quality Towing,3328 Losee Road,North Las Vegas,NV,89030,United States,36.2203303,-115.1237878,336-854-5628
CW Castle Associates,477 FDR Drive m2103,New York,NY,10002,United States,40.7141172,-73.9772876,336-854-5629
Emergency Mobile Tech. Inc.,109 South 1St. Street,Decatur,IN,46733,United States,40.8300479,-84.9224403,336-854-5630
Grass Gators,204 Valley Brook Cir NW,Calgary,AB,T3B 5S1,United States,51.0903263,-114.2400787,336-854-5631
Scissor Trail Secuirty ,895 Ira Vail Road,Leeds,NY,12451,United States,42.317602,-73.951044,336-854-5632
Daydreamers Brick and Landscape Supply,6129 Highland Road,Waterford,MI,48327,United States,42.6594927,-83.4086057,336-854-5633
Cycle Evolution LLC,4101 East Park BLVD Suite 138,Plano,TX,75094,United States,33.032678,-96.6494818,336-854-5634
Hocking Safety,303 Gallagher Ave,Logan,OH,43138,United States,39.538602,-82.416782,336-854-5635
Hand Truck Repair ,801 Nepperhan Ave,Yonkers,NY,10703,United States,40.9527468,-73.8783844,336-854-5636
R Enterprises LLC,286 Harold Cemetery Road,Greeneville,TN,37745,United States,36.193557,-82.83481,336-854-5637
Adventure Out Inc.,7508 NW 39th Expressway,Bethany,OK,73008,United States,35.5143891,-97.6462062,336-854-5638
Neel Fire Rescue,216 Garrison Road,Hartselle,AL,35640,United States,34.4476216,-87.030451,336-854-5639
All Brooklyn Auto Sound,8640 18th Ave,Brooklyn,NY,11214,United States,40.6065722,-74.003731,336-854-5640
Bay Ridge Sound,654 65th Street,Brooklyn,NY,11220,United States,40.6343554,-74.0157008,336-854-5641
Code 3 Complete,285 Water Tower Road,Lebanon Junction,KY,40150,United States,37.8452654,-85.723415,336-854-5642
LVCO EMS/American Cycle Escorts,6565 Foxridge Drive,Mission,KS,66202,United States,39.0415669,-94.6601979,336-854-5643
Interceptor Lighting & Emergency Solutions,742 Huddleston Drive,Grand Prairie,TX,75050,United States,32.7508147,-97.0183963,336-854-5644
Diversified Public Safety,2458 Boston Post Road Unit #5,Guilford,CT,6437,United States,41.3079397,-72.723709,336-854-5645
Endless Possibilities Auto,2740 Beverly Drive Unit C,Aurora,IL,60502,United States,41.8107764,-88.2734522,336-854-5646
E and A Custom Audio,312 E Cottonwood Street,Overton,TX,75684,United States,32.2705243,-94.9752352,336-854-5647
Erie Window Tint,5604 Zaunegger Street,Erie,PA,16509,United States,42.0713549,-80.092034,336-854-5648
First Due Customs,4186 Stein Hwy,Seaford,DE,19973,United States,38.638779,-75.676731,336-854-5649
Garris Body Shop,2883 Hull Road,Kinston,MC,28504,United States,35.2974327,-77.6445293,336-854-5650
Eagle Security Integration,5855 Bartee Street,Norfolk,VI,23502,United States,36.8465224,-76.2044322,336-854-5651
Cater's Automotive Repair Service LLC,17040 SC-11,Fair Play,SC,29643,United States,34.5305309,-83.053568,336-854-5652
Huron Auto Detailing,193 Busch Lane,Tawas City,MI,48763,United States,44.2841366,-83.6358362,336-854-5653
JD Motor Sport LLC,2505 Stanwood Ave,Henderson,NV,89074,United States,36.0425793,-115.0961299,336-854-5654
Cahills Construction & More,32 Hamilton Ave,Troy,NY,12180,United States,42.699469,-73.660056,336-854-5655
JB Electronics llc,3784 Lapham Drive,Harrison,MI,48625,United States,44.0412462,-84.8192877,336-854-5656
The Shop,10714 Walsingham Road,Seminal,FL,33778,United States,27.879607,-82.7879236,336-854-5657
Brooklyn Auto Glass,626 4Th Ave,Brooklyn,NY,11215,United States,40.6647194,-73.9940447,336-854-5658
Lipson Total Care LLC,4318 S Fancher Road,Holley,NY,14470,United States,43.204633,-78.090485,336-854-5659
LOOK Backup Cameras,2280 Lindsay Lane,Florissant,MO,63031,United States,38.8153885,-90.3559709,336-854-5660
MRI SERVICES,1220 E Elizabeth Ave,LINDEN,NJ,7036,United States,40.6425617,-74.2396743,336-854-5661
Speedworld,598 Sunrise Hwy,BALDWIN,NY,11510,United States,40.6562051,-73.6142271,336-854-5662
M F Ronca & Sons,179 Mikron Road,Bethlehem,PA,18020,United States,40.6889623,-75.3404423,336-854-5663
Ems Initiatives,7801 Runnel Road,Bismarck,ND,58503,United States,46.8893502,-100.699201,336-854-5664
Niteman Design & Associates,79 Old Route 9W,Port Ewen,NY,12466,United States,41.914315,-73.980745,336-854-5665
OnPoint Connections,780 Enfield Street,Enfield,CT,6082,United States,42.0023703,-72.5937429,336-854-5666
Lorenz Bus Service,8600 Xylite Street NE,Minneapolis,MN,55449,United States,45.1257263,-93.2053503,336-854-5667
Payless Auto Mart,29805 PACIFIC HWY S,FEDERAL WAY,WA,98003,United States,47.3349214,-122.3127252,336-854-5668
Pike County Communications,P.O. Box 216,Matamoras,PA,18336,United States,41.370566,-74.6981377,336-854-5669
Quality Emergency Vehicles,14 Sunnyside Drive,Montvale,NJ,7645,United States,41.0509509,-74.0333401,336-854-5670
Executive Expert Collision,4213 Peters Place,Bronx,NY,10470,United States,40.8960405,-73.8640972,336-854-5671
Traffic & Lighting systems,13305 N. Santa Fe Ave,Oklahoma City,OK,73114,United States,35.6054188,-97.5144869,336-854-5672
Coasson Inc,103 E Waterford Street,Wakarusa,IN,46573,United States,41.5358518,-86.0205329,336-854-5673
Shield Offroad Lighting,300 Andover Street,Peabody,MA,1960,United States,42.5494743,-70.9562144,336-854-5674
Shelby Public Safety,505 Creekview Road,Pelham,AL,35124,United States,33.3058536,-86.8147673,336-854-5675
On Your Six Task Force,4945 Sigler Lane,Millington,TN,38053,United States,35.3560171,-89.8958522,336-854-5676
Monroe Lighting & Safety Supplies,39283 T.H. 581 ,New Matamoras,OH,45767,United States,39.5231932,-81.0658063,336-854-5677
Ultimate Public Safety Equipment & Supply,W6139 G 08 Road,Wallace,MI,49893,United States,45.3219436,-87.6136956,336-854-5678
"Mebane Mulch Plus, Inc.",552 Meadowood Drive,Burlington,NC,27215,United States,36.0848452,-79.5039345,336-854-5679
Gator Public Safety,35 Knowsley Park Lane,Prescot ,England,L34 3NA,United Kingdom,53.4321621,-2.8125173,336-854-5680
Kelco Supply Company,20000 176th Street NW,Big Lake,MN,55309,United States,45.334495,-93.7187889,336-854-5681
Midwest Vac Products LLC,7627 Richter Road,Mascoutah,IL,62258,United States,38.4970463,-89.7706603,336-854-5682
Tekstyle Audio & Security,23 W 2nd S,Liberal,KS,67901,United States,37.0399084,-100.9234019,336-854-5683
GlobalTech,214 S Pecan Strett,Deport,TX,75435,United States,33.5270827,-95.31686,336-854-5684
Global Tech Public Safety,29455 N Cave Creek Road #118 ,Cave Creek,AZ,85331,United States,33.7515572,-111.9913147,336-854-5685
Action EMT Lighting,8 London Ave,lakewood,NJ,8701,United States,40.0776547,-74.1812982,336-854-5686
HQ Custom Design ,275 Huyler Street ,South Hackensack,NJ,7606,United States,40.8705664,-74.0495654,336-854-5687
Expertlys,Herman Wildenveys Gate 43E ,Stavern,NO,3292,United States,59.9414342,10.6691842,336-854-5688
Bossman Construction,6327 W Coldwater Road,Flushing,MI,48433,United States,43.08903,-83.8054329,336-854-5689
SBC Global,800 Sonoma Blvd,Vallejo,CA,94590,United States,38.0894909,-122.2446943,336-854-5690
B & M Sales,27607 Ayersville Pleasant Bend Road,Defiance,OH,43512,United States,41.2439006,-84.2941729,336-854-5691
"Avalanche Strategies, LLC",144 Dixon Street,Selbyville,DE,19975,United States,38.4538079,-75.2290364,336-854-5692
Eclipse Bright,2814 Kenwood Drive ,Hopkinsville,KN,42240,United States,36.8448673,-87.4984808,336-854-5693
Martel Communications,559 Stewart Gin Road,Liberty,SC,29657,United States,34.810759,-82.736597,336-854-5694
Unlimited Linings,6220 S 36th Street,Phoenix,AZ,85042,United States,33.390518,-112.005748,336-854-5695
Bradleys Slights,906 Diana Drive,Kouts,IN,46347,United States,41.3105075,-87.0339729,336-854-5696
"Safety First Emergency Vehicles, LLC",40 Chestnut Street # 10,Lakewood,NJ,8701,United States,40.0528788,-74.219079,336-854-5697
Quality Towing,3328 Losee Road,North Las Vegas,NV,89030,United States,36.2203303,-115.1237878,336-854-5698
CW Castle Associates,477 FDR Drive m2103,New York,NY,10002,United States,40.7141172,-73.9772876,336-854-5699
Emergency Mobile Tech. Inc.,109 South 1St. Street,Decatur,IN,46733,United States,40.8300479,-84.9224403,336-854-5700
Grass Gators,204 Valley Brook Cir NW,Calgary,AB,T3B 5S1,United States,51.0903263,-114.2400787,336-854-5701
Scissor Trail Secuirty ,895 Ira Vail Road,Leeds,NY,12451,United States,42.317602,-73.951044,336-854-5702
Daydreamers Brick and Landscape Supply,6129 Highland Road,Waterford,MI,48327,United States,42.6594927,-83.4086057,336-854-5703
Cycle Evolution LLC,4101 East Park BLVD Suite 138,Plano,TX,75094,United States,33.032678,-96.6494818,336-854-5704
Hocking Safety,303 Gallagher Ave,Logan,OH,43138,United States,39.538602,-82.416782,336-854-5705
Hand Truck Repair ,801 Nepperhan Ave,Yonkers,NY,10703,United States,40.9527468,-73.8783844,336-854-5706
R Enterprises LLC,286 Harold Cemetery Road,Greeneville,TN,37745,United States,36.193557,-82.83481,336-854-5707
Adventure Out Inc.,7508 NW 39th Expressway,Bethany,OK,73008,United States,35.5143891,-97.6462062,336-854-5708
Neel Fire Rescue,216 Garrison Road,Hartselle,AL,35640,United States,34.4476216,-87.030451,336-854-5709
All Brooklyn Auto Sound,8640 18th Ave,Brooklyn,NY,11214,United States,40.6065722,-74.003731,336-854-5710
Bay  Ridge Sound,654 65th Street,Brooklyn,NY,11220,United States,40.6343554,-74.0157008,336-854-5711
Code 3 Complete,285 Water Tower Road,Lebanon Junction,KY,40150,United States,37.8452654,-85.723415,336-854-5712
LVCO EMS/American Cycle Escorts,6565 Foxridge Drive,Mission,KS,66202,United States,39.0415669,-94.6601979,336-854-5713
Interceptor Lighting & Emergency Solutions,742 Huddleston Drive,Grand Prairie,TX,75050,United States,32.7508147,-97.0183963,336-854-5714
Diversified Public Safety,2458 Boston Post Road Unit #5,Guilford,CT,6437,United States,41.3079397,-72.723709,336-854-5715
Endless Possibilities Auto,2740 Beverly Drive Unit C,Aurora,IL,60502,United States,41.8107764,-88.2734522,336-854-5716
E and A Custom Audio,312 E Cottonwood Street,Overton,TX,75684,United States,32.2705243,-94.9752352,336-854-5717
Erie Window Tint,5604 Zaunegger Street,Erie,PA,16509,United States,42.0713549,-80.092034,336-854-5718
First Due Customs,4186 Stein Hwy,Seaford,DE,19973,United States,38.638779,-75.676731,336-854-5719
Garris Body Shop,2883 Hull Road,Kinston,MC,28504,United States,35.2974327,-77.6445293,336-854-5720
Eagle Security Integration,5855 Bartee Street,Norfolk,VI,23502,United States,36.8465224,-76.2044322,336-854-5721
Cater's Automotive Repair Service LLC,17040 SC-11,Fair Play,SC,29643,United States,34.5305309,-83.053568,336-854-5722
Huron Auto Detailing,193 Busch Lane,Tawas City,MI,48763,United States,44.2841366,-83.6358362,336-854-5723
JD Motor Sport LLC,2505 Stanwood Ave,Henderson,NV,89074,United States,36.0425793,-115.0961299,336-854-5724
Cahills Construction & More,32 Hamilton Ave,Troy,NY,12180,United States,42.699469,-73.660056,336-854-5725
JB Electronics llc,3784 Lapham Drive,Harrison,MI,48625,United States,44.0412462,-84.8192877,336-854-5726
The Shop,10714 Walsingham Road,Seminal,FL,33778,United States,27.879607,-82.7879236,336-854-5727
Brooklyn Auto Glass,626 4Th Ave,Brooklyn,NY,11215,United States,40.6647194,-73.9940447,336-854-5728
Lipson Total Care LLC,4318 S Fancher Road,Holley,NY,14470,United States,43.204633,-78.090485,336-854-5729
LOOK Backup Cameras,2280 Lindsay Lane,Florissant,MO,63031,United States,38.8153885,-90.3559709,336-854-5730
MRI SERVICES,1220 E Elizabeth Ave,LINDEN,NJ,7036,United States,40.6425617,-74.2396743,336-854-5731
Speedworld,598 Sunrise Hwy,BALDWIN,NY,11510,United States,40.6562051,-73.6142271,336-854-5732
M F Ronca & Sons,179 Mikron Road,Bethlehem,PA,18020,United States,40.6889623,-75.3404423,336-854-5733
Ems Initiatives,7801 Runnel Road,Bismarck,ND,58503,United States,46.8893502,-100.699201,336-854-5734
Niteman Design & Associates,79 Old Route 9W,Port Ewen,NY,12466,United States,41.914315,-73.980745,336-854-5735
OnPoint Connections,780 Enfield Street,Enfield,CT,6082,United States,42.0023703,-72.5937429,336-854-5736
Lorenz Bus Service,8600 Xylite Street NE,Minneapolis,MN,55449,United States,45.1257263,-93.2053503,336-854-5737
Payless Auto Mart,29805 PACIFIC HWY S,FEDERAL WAY,WA,98003,United States,47.3349214,-122.3127252,336-854-5738
Pike County Communications,P.O. Box 216,Matamoras,PA,18336,United States,41.370566,-74.6981377,336-854-5739
Quality Emergency Vehicles,14 Sunnyside Drive,Montvale,NJ,7645,United States,41.0509509,-74.0333401,336-854-5740
Executive Expert Collision,4213 Peters Place,Bronx,NY,10470,United States,40.8960405,-73.8640972,336-854-5741
Traffic & Lighting Systems,13305 N. Santa Fe Ave,Oklahoma City,OK,73114,United States,35.6054188,-97.5144869,336-854-5742
Coasson Inc,103 E Waterford Street,Wakarusa,IN,46573,United States,41.5358518,-86.0205329,336-854-5743
Shield Offroad Lighting,300 Andover Street,Peabody,MA,1960,United States,42.5494743,-70.9562144,336-854-5744
Shelby Public Safety,505 Creekview Road,Pelham,AL,35124,United States,33.3058536,-86.8147673,336-854-5745
On Your Six Task Force,4945 Sigler Lane,Millington,TN,38053,United States,35.3560171,-89.8958522,336-854-5746
Monroe Lighting & Safety Supplies,39283 T.H. 581 ,New Matamoras,OH,45767,United States,39.5231932,-81.0658063,336-854-5747
Ultimate Public Safety Equipment & Supply,W6139 G 08 Road,Wallace,MI,49893,United States,45.3219436,-87.6136956,336-854-5748
"Mebane Mulch Plus, Inc.",552 Meadowood Drive,Burlington,NC,27215,United States,36.0848452,-79.5039345,336-854-5749
Gator Public Safety,35 Knowsley Park Lane,Prescot ,England,L34 3NA,United Kingdom,53.4321621,-2.8125173,336-854-5750
Texas Safety Equipment,20910 Harmon Rd,Fort Worth ,TX,76177,United States,-97.323771,32.938729,336-854-5751
Bellinger's Emergency Lighting & Tactical Supply,20 Greatsinger Dr,Pine City ,New York ,14871,United States,42.053683,-76.83327,336-854-5752
Dana Safety Supply Greensboro NC,4809 Koger Blvd. ,Greensboro,NC,27407,United States,36.04853,-79.87751,336-854-5753
Dana Safety Supply - Jacksonville FL,1855 Cassat Ave,Jacksonville,FL,32210,United States,30.2846121,-81.729525,336-854-5754
Dana Safety Supply - Tallahassee FL,4412 Production Court,Tallahassee,FL,33916,United States,30.40287,-84.325,336-854-5755
Dana Safety Supply - Orlando FL,4832 North Orange Blossom Trail,Orlando,FL,32810,United States,28.60257,-81.42079,336-854-5756
Dana Safety Supply - DeLand FL,DeLand 1401 Saratoga St,DeLand,FL,32724,United States,29.06163,-81.27833,336-854-5757
Dana Safety Supply - Fort Myers FL,3350 Hanson St. Units F & G,Fort Myers,FL,33916,United States,26.62252,-81.84453,336-854-5758
Dana Safety Supply - Pompano Beach FL,4100 N. Powerline Rd,Pompano Beach,FL,33073,United States,26.2785,-80.14846,336-854-5759
Dana Safety Supply - Columbia SC,1555 Old Dairy Dr,Columbia,SC,29210,United States,33.96523,-81.01126,336-854-5760
Dana Safety Supply - Atlanta GA,4729 Nelson Brogdon Blvd #F,Atlanta,GA,30518,United States,34.1038,-84.02112,336-854-5761
Dana Safety Supply - Marietta GA,1257 Kennestone Circle Ste. H,Marietta,GA,30066,United States,33.98323,-84.54962,336-854-5762
Dana Safety Supply - Livingston MT,33 Sundance Drive,Livingston,MT,59047,United States,45.4576,-110.62853,336-854-5763
Fleet Safety Equipment - North Little Rock AR,1100 Hemlock St,N. Little Rock,AR,72114,United States,34.7617,-92.24687,336-854-5764
Fleet Safety Equipment - Tampa FL,3810 W Osborne Ave,Tampa,FL,33614,United States,27.98865,-82.50629,336-854-5765
Fleet Safety Equipment - Miami FL,7001 NW 36th Ave,Miami,FL,33147,United States,25.83718,-80.25513,336-854-5766
Fleet Safety Equipment - Houston TX,6525 Goforth St,Houston,TX,77021,United States,29.69323,-95.3544,336-854-5767
Fleet Safety Equipment - La Feria TX,202 East Industrial Way,La Feria,TX,78559,United States,26.16282,-97.82263,336-854-5768
Fleet Safety Equipment - Ft Worth TX,814 S. Blue Mound Rd,Ft Worth,TX,76131,United States,32.86037,-97.34315,336-854-5769
Fleet Safety Equipment - Baton Rogue LA,10362 Greenwell Springs Rd,Baton Rogue,LA,70814,United States,30.49156,-91.06868,336-854-5770
Fleet Safety Equipment - Memphis TN,2188 Spicer Cove,Memphis,TN,38134,United States,35.18473,-89.88988,336-854-5771
Fleet Safety Equipment - Ft Worth TX,814 S. Blue Mound Rd,Ft Worth,TX,76131,United States,32.86037,-97.34315,336-854-5772
Fleet Safety Equipment - Pell City AL,1613 Dowzer Ave,Pell City,AL,35125,United States,33.60282,-86.25723,336-854-5773
Beyer Fleet,31 Williams Pkwy,East Hanover,NJ,7936,United States,40.81225,-74.38315,336-854-5774
CAP Fleet Upfitters - Temple TX,2603 Taylors Valley Road,Belton,TX,76513,United States,31.052,-97.43766,336-854-5775
CAP Fleet Upfitters - Houston TX,4909 Fulton St,Houston,TX,77009,United States,29.80448,-95.36923,336-854-5776
CAP Fleet Upfitters - Harlingen TX,1910 McFetridge St,Harlingen,TX,78550,United States,26.21334,-97.70201,336-854-5777
CAP Fleet Upfitters - Little Rock AR,6208 Lindsey Road,Little Rock,AR,72206,United States,34.71304,-92.20449,336-854-5778
Kaldor Emergency Lights,19 Vanderburg Rd,Marlboro ,NJ,7746,United States,40.31546,-74.24467,336-854-5779
Big Country Supply,1425 Sayles Blvd,Abilene,TX,79605,United States,32.41998,-99.7483,336-854-5780
HOPE Technik,6 Penjuru Close ,Singapore ,,608614,Singapore ,1.31284,103.72978,336-854-5781
Kesher Radio,Sderot Menachem Begin 17,Yahud,,,Israel,32.03454,34.88095,336-854-5782
TelKol Communications ,Imber st. 23,Kiriat-Arie,Petah-Tiqwa,49002,Israel,32.09946,34.8647,336-854-5783
GAL-OR Auto,"Industrial Zone, Lev Aaretz",Lev Aaretz,Rosh Haayin,4810001,Israel,32.10684,34.95485,336-854-5784
Scala Radio,Harashei Barzel St 6,Jerusalem,,,Israel,31.74895,35.20974,336-854-5785
Asfir 4x4 - Migdal Haemek,Sagie 2000,Migdal Haemek,,2310001,Israel,32.65745,35.23933,336-854-5786
Mayday 555,PO 1145 Pardes Chana,Pardes Chana,,,Israel,32.47141,34.96486,336-854-5787
Hakol LaRechev Tzfrir,Uzi'el St 68,Ramat Gan,,,Israel,32.072754,34.823188,336-854-5788
Quest Fabrication,923 46th Ave SE,Calgary,AB,T2G 2A5,Canada,51.01175665,-114.03883696,336-854-5789
PES Canada - Toronto,"1510 Drew Road, Unit 13",Mississauga,ON,L5S 1W7,Canada,43.6812971,-79.6820799,336-854-5790
PES Canada - Quebec,465 2e Avenue,St-Romuald,QC,G6W 5M6,Canada,46.74826772,-71.2390268,418-834-9800
PES Canada - Toronto,1575 boul. Lionel-Boulet,Varennes,QC,J3X 1P7,Canada,45.62808444,-73.38561416,905-612-8168
911 Equipement SH,109 Terrasse Pierre,Sainte-Sophie,QC,J5J 1A4,Canada,45.82732,-73.818193,514-296-5413
Impact Solutions,CP 70212,QC,,G2J 0A2,Canada,46.894641,-71.173873,877-730-1515
Rocky Mountain Phoenix - Abbotsford BC,2285 Queen Street - #103 ,Abbotsford,BC,V2T 6J3,Canada,49.0352004,-122.3678051,604-864-7303
Rocky Mountain Phoenix - Red Deer AB,6415 Golden West Avenue,Red Deer,AB,T4P 3X2,Canada,52.28478,-113.847245,403-347-7045
Rocky Mountain Phoenix - Nova Scotia,320 Logan Road ,Bridgewater,NS,B4V 3J8,Canada,44.38315918,-64.5443412,844-530-4003
Nationwide Sound & Security,57 Division Ave,Brooklyn,NY,11249,United States,40.7072775,-73.9667195,718-963-6949
Fantastic Emergency Lighting,250 Penn Street,Brooklyn,NY,11211,United States,40.70459,-73.95419,718-963-6950
Fleet Warning Equipment,73 Columbia BLVD,Waterbury,CT,6710,United States,41.582511,-73.0456985,718-963-6951
